[
  {
    "name": "ΜΗΧΑΝΙΩΝΑ",
    "country": "Greece",
    "coordinates": [40.4661488021931, 22.8545901825901],
    "type": "Port",
    "kg": 24760,
    "actions": 200
  },
  {
    "name": "ΜΟΥΔΑΝΙΑ",
    "country": "Greece",
    "coordinates":[ 40.23954649913149, 23.279096048233473],
    "type": "Port",
    "kg": 925,
    "actions": 200
  },
  {
    "name": "ΠΟΡΤΟ ΚΟΥΦΟ",
    "country": "Greece",
    "coordinates":[ 39.971015364992695, 23.91760015021697],
    "type": "Port",
    "kg": 5540,
    "actions": 200
  },
  {
    "name": "ΚΕΡΑΤΣΙΝΙ",
    "country": "Greece",
    "coordinates": [37.95977990970762, 23.60790881559715],
    "type": "Port",
    "kg": 18720,
    "actions": 200
  },
  {
    "name": "ΚΕΡΚΥΡΑ",
    "country": "Italy",
    "coordinates": [39.62747648666418, 19.90624965817071],
    "type": "Port",
    "kg": 7105,
    "actions": 200
  },
  {
    "name": "ΚΥΛΛΗΝΗ",
    "country": "Greece",
    "coordinates" :[ 37.93724142624388, 21.147712118664355],
    "type": "Port",
    "kg": 8500,
    "actions": 200
  },
  {
    "name": "ΧΑΝΙΑ",
    "country": "Greece",
    "coordinates": [ 35.51865015628125, 24.018592718415473],
    "type": "Port",
    "kg": 983,
    "actions": 200
  },
  {
    "name": "ΑΓΙΟΣ ΝΙΚΟΛΑΟΣ",
    "country": "Greece",
    "coordinates":[ 35.18687763666635, 25.716497938394546],
    "type": "Port",
    "kg": 1380,
    "actions": 200
  },
  {
    "name": "ΚΑΛΥΜΝΟΣ",
    "country": "Greece",
    "coordinates": [36.9467522241425, 26.9845007822738],
    "type": "Port",
    "kg": 7945,
    "actions": 200
  },
  {
    "name": "ΗΡΑΚΛΕΙΟ",
    "country": "Greece",
    "coordinates": [35.3434284566139, 25.14246576087459],
    "type": "Port",
    "kg": 1280,
    "actions": 200
  },
  {
    "name": "ΧΑΛΚΙΔΑ",
    "country": "Greece",
    "coordinates": [38.472481832611216, 23.611513295709265],
    "type": "Port",
    "kg": 5170,
    "actions": 200
  },
  {
    "name": "ΚΥΜΗ",
    "country": "Greece",
    "coordinates": [38.63068422716857, 24.12366162751605],
    "type": "Port",
    "kg": 4955,
    "actions": 200
  },
  {
    "name": "ΠΑΤΡΑ",
    "country": "Greece",
    "coordinates": [ 38.23258477799047, 21.721309485280024],
    "type": "Port",
    "kg": 3680,
    "actions": 200
  },
  {
    "name": "ΗΓΟΥΜΕΝΙΤΣΑ",
    "country": "Greece",
    "coordinates": [39.491201433596345, 20.257672641933194],
    "type": "Port",
    "kg": 350,
    "actions": 200
  },
  {
    "name": "ΑΣΤΥΠΑΛΑΙΑ",
    "country": "Greece",
    "coordinates":[ 36.54722086850505, 26.355454687476822],
    "type": "Port",
    "kg": 650,
    "actions": 100
  },
  {
    "name": "ΚΕΦΑΛΟΝΙΑ",
    "country": "Greece",
    "coordinates":[ 38.20095400656163, 20.442970013708088],
    "type": "Port",
    "kg": 15,
    "actions": 200
  },
  {
    "name": "ΑΜΟΡΓΟΣ",
    "country": "Greece",
    "coordinates":[ 36.82978906934533, 25.865952735835503],
    "type": "Port",
    "kg": 1000,
    "actions": 90
  },
  {
    "name": "ΠΡΕΒΕΖΑ",
    "country": "Greece",
    "coordinates":[ 38.96026350557748, 20.755274137418237],
    "type": "Port",
    "kg": 7000,
    "actions": 200
  },
  {
    "name": "ΑΝΔΡΟΣ",
    "country": "Greece",
    "coordinates": [37.838848742959165, 24.937208160099665],
    "type": "Manufacturer",
    "kg": 2780,
    "actions": 210
  },
  {
    "name": "ΒΟΛΟΣ",
    "country": "Greece",
    "coordinates": [39.359480083140745, 22.944682403839764],
    "type": "Recycler",
    "kg": 700,
    "actions": 200
  },
  {
    "name": "ΚΑΡΥΣΤΟΣ",
    "country": "Greece",
    "coordinates":[ 38.01307521942295, 24.419113626679977],
    "type": "Port",
    "kg": 1048,
    "actions": 150
  },
  {
    "name": "ΛΑΥΡΙΟ",
    "country": "Greece",
    "coordinates": [37.712246549544474, 24.055911094901795],
    "type": "Recycler",
    "kg": 11580,
    "actions": 200
  },
  {
    "name": "ΣΑΛΑΜΙΝΑ",
    "country": "Greece",
    "coordinates":[ 37.96238060360595, 23.491569103029516],
    "type": "Port",
    "kg": 2650,
    "actions": 60
  },
  {
    "name": "ΚΑΒΑΛΑ",
    "country": "Greece",
    "coordinates":[ 40.93375139256846, 24.406376643387386],
    "type": "Port",
    "kg": 4950,
    "actions": 200
  },
  {
    "name": "ΣΑΜΟΣ",
    "country": "Greece",
    "coordinates": [37.752288012318346, 26.960092022102714],
    "type": "Port",
    "kg": 1050,
    "actions": 20
  },
  {
    "name": "ΒΑΡΚΙΖΑ",
    "country": "Italy",
    "coordinates":[ 37.81666472020753, 23.801770408926448],
    "type": "Port",
    "kg": 1700,
    "actions": 200
  },
  {
    "name": "ΝΕΑ ΚΙΟΣ",
    "country": "Greece",
    "coordinates":[ 37.58406235010875, 22.746694366190873],
    "type": "Port",
    "kg": 600,
    "actions": 400
  },
  {
    "name": "ΑΣΤΑΚΟΣ",
    "country": "Greece",
    "coordinates":[ 38.53364745701822, 21.081418013650772],
    "type": "Port",
    "kg": 500,
    "actions": 200
  },
  {
    "name": "ΒΟΝΙΤΣΑ",
    "country": "Greece",
    "coordinates":[ 38.92130847269666, 20.894010245287006],
    "type": "Port",
    "kg": 1000,
    "actions": 300
  },
  {
    "name": "ΚΥΘΝΟΣ",
    "country": "Greece",
    "coordinates":[ 37.38970202118642, 24.397907731648736],
    "type": "Port",
    "kg": 2130,
    "actions": 200
  },
  {
    "name": "ΥΔΡΑ",
    "country": "Greece",
    "coordinates": [37.3503029213466, 23.4652459182793],
    "type": "Port",
    "kg": 700,
    "actions": 200
  },
  {
    "name": "ΣΠΕΤΣΕΣ",
    "country": "Greece",
    "coordinates": [37.269201231399265, 23.156763857242673],
    "type": "Port",
    "kg": 500,
    "actions": 200
  },
  {
    "name": "ΚΟΙΛΑΔΑ",
    "country": "Italy",
    "coordinates": [37.41722477408152, 23.12731074629627],
    "type": "Port",
    "kg": 3600,
    "actions": 200
  },
  {
    "name": "ΣΥΜΗ",
    "country": "Italy",
    "coordinates": [36.622342305955705, 27.841942476140886],
    "type": "Manufacturer",
    "kg": 10060,
    "actions": 200
  }
]